{
  "center": [74.7, 19.1],
  "zoom": 9,
  "talukas": [
    {
      "name": "Akole",
      "lng": 73.9009,
      "lat": 19.5333,
      "milkDaily": 78,
      "vetFacilities": 29,
      "fishProd": 216,
      "aiAchievement": 47.8,
      "societies": 137,
      "color": "#cf5c36"
    },
    {
      "name": "Sangamner",
      "lng": 74.2142,
      "lat": 19.5687,
      "milkDaily": 310,
      "vetFacilities": 25,
      "fishProd": 136,
      "aiAchievement": 47.8,
      "societies": 218,
      "color": "#2c699a"
    },
    {
      "name": "Kopargaon",
      "lng": 74.4787,
      "lat": 19.8826,
      "milkDaily": 127,
      "vetFacilities": 11,
      "fishProd": 15,
      "aiAchievement": 36.1,
      "societies": 110,
      "color": "#008450"
    },
    {
      "name": "Rahata",
      "lng": 74.4833,
      "lat": 19.7167,
      "milkDaily": 26,
      "vetFacilities": 15,
      "fishProd": 12,
      "aiAchievement": 56.8,
      "societies": 83,
      "color": "#d4af37"
    },
    {
      "name": "Srirampur",
      "lng": 74.6559,
      "lat": 19.6164,
      "milkDaily": 0,
      "vetFacilities": 11,
      "fishProd": 138,
      "aiAchievement": 43.5,
      "societies": 26,
      "color": "#10b981"
    },
    {
      "name": "Nevasa",
      "lng": 74.9864,
      "lat": 19.5566,
      "milkDaily": 30,
      "vetFacilities": 15,
      "fishProd": 21,
      "aiAchievement": 48.5,
      "societies": 28,
      "color": "#3c4e6a"
    },
    {
      "name": "Shevgaon",
      "lng": 75.0999,
      "lat": 19.3527,
      "milkDaily": 0,
      "vetFacilities": 14,
      "fishProd": 12,
      "aiAchievement": 47.7,
      "societies": 25,
      "color": "#2c699a"
    },
    {
      "name": "Pathardi",
      "lng": 75.2068,
      "lat": 19.1687,
      "milkDaily": 7,
      "vetFacilities": 15,
      "fishProd": 124,
      "aiAchievement": 50.7,
      "societies": 30,
      "color": "#008450"
    },
    {
      "name": "Nagar",
      "lng": 74.7479,
      "lat": 19.0948,
      "milkDaily": 5,
      "vetFacilities": 20,
      "fishProd": 164,
      "aiAchievement": 47.4,
      "societies": 42,
      "color": "#3c4e6a"
    },
    {
      "name": "Rahuri",
      "lng": 74.6482,
      "lat": 19.3920,
      "milkDaily": 11,
      "vetFacilities": 16,
      "fishProd": 438,
      "aiAchievement": 57.9,
      "societies": 34,
      "color": "#cf5c36"
    },
    {
      "name": "Parner",
      "lng": 74.4437,
      "lat": 19.0000,
      "milkDaily": 3,
      "vetFacilities": 18,
      "fishProd": 118,
      "aiAchievement": 44.6,
      "societies": 79,
      "color": "#d4af37"
    },
    {
      "name": "Srigonda",
      "lng": 74.6897,
      "lat": 18.8631,
      "milkDaily": 7,
      "vetFacilities": 17,
      "fishProd": 385,
      "aiAchievement": 33.7,
      "societies": 34,
      "color": "#10b981"
    },
    {
      "name": "Karjat",
      "lng": 75.0366,
      "lat": 18.9077,
      "milkDaily": 12,
      "vetFacilities": 12,
      "fishProd": 235,
      "aiAchievement": 42.5,
      "societies": 40,
      "color": "#cf5c36"
    },
    {
      "name": "Jamkhed",
      "lng": 75.3145,
      "lat": 18.7223,
      "milkDaily": 0,
      "vetFacilities": 10,
      "fishProd": 202,
      "aiAchievement": 25.3,
      "societies": 16,
      "color": "#d4af37"
    }
  ]
}
