{
  "chartData": [
    { "year": "2018", "vaccinations": 850, "clinics": 90, "stateAvg": 880, "target2025": 150 },
    { "year": "2019", "vaccinations": 920, "clinics": 95, "stateAvg": 950, "target2025": 150 },
    { "year": "2020", "vaccinations": 900, "clinics": 100, "stateAvg": 930, "target2025": 150 },
    { "year": "2021", "vaccinations": 1100, "clinics": 110, "stateAvg": 1150, "target2025": 150 },
    { "year": "2022", "vaccinations": 1350, "clinics": 125, "stateAvg": 1400, "target2025": 150 },
    { "year": "2023", "vaccinations": 1600, "clinics": 135, "stateAvg": 1650, "target2025": 150 },
    { "year": "2024", "vaccinations": 1800, "clinics": 142, "stateAvg": 1850, "target2025": 150 }
  ],
  "relatedMetrics": [
    {
      "title": "Dairy Cooperative Societies",
      "subtitle": "Active societies & memberships",
      "icon": "Store",
      "chartType": "bar",
      "data": [
        { "label": "2018", "value": 120 },
        { "label": "2019", "value": 125 },
        { "label": "2020", "value": 132 },
        { "label": "2021", "value": 140 },
        { "label": "2022", "value": 145 },
        { "label": "2023", "value": 152 },
        { "label": "2024", "value": 160 }
      ],
      "colors": ["#3c4e6a"]
    },
    {
      "title": "Livestock Population",
      "subtitle": "Cows & Buffaloes count",
      "icon": "PawPrint",
      "chartType": "donut",
      "data": [
        { "label": "Hybrid", "value": 45 },
        { "label": "Native", "value": 25 },
        { "label": "Buffaloes", "value": 30 }
      ],
      "colors": ["#2c699a", "#cf5c36", "#10b981"]
    },
    {
      "title": "Fisheries Production",
      "subtitle": "Annual production in MT",
      "icon": "Fish",
      "chartType": "area",
      "data": [
        { "label": "2018", "value": 500 },
        { "label": "2019", "value": 550 },
        { "label": "2020", "value": 600 },
        { "label": "2021", "value": 600 },
        { "label": "2022", "value": 750 },
        { "label": "2023", "value": 800 },
        { "label": "2024", "value": 950 }
      ],
      "colors": ["#d4af37"]
    }
  ],
  "availableDataPoints": [
    { "id": "vaccinations", "label": "Vaccinations", "value": "1.8k", "checked": true },
    { "id": "clinics", "label": "Active Clinics", "value": "142", "checked": true },
    { "id": "aiServices", "label": "AI Services", "value": "1.0k", "checked": false },
    { "id": "mobileUnits", "label": "Mobile Units", "value": "28", "checked": false },
    { "id": "diseaseOutbreaks", "label": "Disease Outbreaks", "value": "12", "checked": false }
  ],
  "talukas": [
    { "name": "Ahilyanagar City", "lng": 74.7479, "lat": 19.0948, "vaccinations": 1800, "clinics": 18, "color": "#3c4e6a" },
    { "name": "Sangamner", "lng": 74.2142, "lat": 19.5687, "vaccinations": 420, "clinics": 15, "color": "#2c699a" },
    { "name": "Kopargaon", "lng": 74.4787, "lat": 19.8826, "vaccinations": 310, "clinics": 12, "color": "#008450" },
    { "name": "Akole", "lng": 73.9009, "lat": 19.5333, "vaccinations": 250, "clinics": 10, "color": "#cf5c36" },
    { "name": "Shrirampur", "lng": 74.6559, "lat": 19.6164, "vaccinations": 280, "clinics": 11, "color": "#10b981" },
    { "name": "Rahata", "lng": 74.4833, "lat": 19.7167, "vaccinations": 200, "clinics": 9, "color": "#d4af37" },
    { "name": "Newasa", "lng": 74.9864, "lat": 19.5566, "vaccinations": 190, "clinics": 10, "color": "#3c4e6a" },
    { "name": "Shevgaon", "lng": 75.0999, "lat": 19.3527, "vaccinations": 150, "clinics": 8, "color": "#2c699a" },
    { "name": "Pathardi", "lng": 75.2068, "lat": 19.1687, "vaccinations": 130, "clinics": 7, "color": "#008450" },
    { "name": "Parner", "lng": 74.4437, "lat": 19.0000, "vaccinations": 175, "clinics": 9, "color": "#cf5c36" },
    { "name": "Karjat", "lng": 75.0366, "lat": 18.9077, "vaccinations": 110, "clinics": 6, "color": "#10b981" },
    { "name": "Jamkhed", "lng": 75.3145, "lat": 18.7223, "vaccinations": 95, "clinics": 5, "color": "#d4af37" },
    { "name": "Rahuri", "lng": 74.6482, "lat": 19.3920, "vaccinations": 220, "clinics": 11, "color": "#3c4e6a" },
    { "name": "Nagar (Rural)", "lng": 74.7200, "lat": 19.1500, "vaccinations": 185, "clinics": 10, "color": "#2c699a" }
  ]
}
